{
    "response" : {
        "places" : [
            {
            "id" : 1,
            "name" : "Coffee House",
            "picture" : "https://irs0.4sqi.net/img/general/width960/btxjlgiz_M5t6IIPTd0PrjB5k0aw5vonDzu3ufwOdnI.jpg",
            "genres" : "Lounge/Pop/Jazz/Slamming Brutal Death Metal",
            "address" : "86a Olesya Gonchara str, Kiev",
            "phone" : "380441112233",
            "location" : "50.448298:30.496656",
            "close_time" : "20:00"
            },
            {
            "id" : 2,
            "name" : "OTP Bank",
            "picture" : "https://irs0.4sqi.net/img/general/width960/31068316_m90JTVhqQ6g7Nl0gWH94IpWXzO1brerbIJY_8OJmUSs.jpg",
            "genres" : "Ambient",
            "address" : "74 Olesya Gonchara str, Kiev",
            "phone" : "380449998877",
            "location" : "50.449099:30.499075",
            "close_time" : "18:00"
            },
            {
            "id" : 3,
            "name" : "Coffee House",
            "picture" : "https://irs0.4sqi.net/img/general/width960/btxjlgiz_M5t6IIPTd0PrjB5k0aw5vonDzu3ufwOdnI.jpg",
            "genres" : "Lounge/Pop/Jazz/Slamming Brutal Death Metal",
            "address" : "86a Olesya Gonchara str, Kiev",
            "phone" : "380441112233",
            "location" : "50.448298:30.496656",
            "close_time" : "20:00"
            },
            {
            "id" : 4,
            "name" : "Coffee House",
            "picture" : "https://irs0.4sqi.net/img/general/width960/btxjlgiz_M5t6IIPTd0PrjB5k0aw5vonDzu3ufwOdnI.jpg",
            "genres" : "Lounge/Pop/Jazz/Slamming Brutal Death Metal",
            "address" : "86a Olesya Gonchara str, Kiev",
            "phone" : "380441112233",
            "location" : "50.448298:30.496656",
            "close_time" : "20:00"
            },
            {
            "id" : 5,
            "name" : "Coffee House",
            "picture" : "https://irs0.4sqi.net/img/general/width960/btxjlgiz_M5t6IIPTd0PrjB5k0aw5vonDzu3ufwOdnI.jpg",
            "genres" : "Lounge/Pop/Jazz/Slamming Brutal Death Metal",
            "address" : "86a Olesya Gonchara str, Kiev",
            "phone" : "380441112233",
            "location" : "50.448298:30.496656",
            "close_time" : "20:00"
            },
            {
            "id" : 6,
            "name" : "Coffee House",
            "picture" : "https://irs0.4sqi.net/img/general/width960/btxjlgiz_M5t6IIPTd0PrjB5k0aw5vonDzu3ufwOdnI.jpg",
            "genres" : "Lounge/Pop/Jazz/Slamming Brutal Death Metal",
            "address" : "86a Olesya Gonchara str, Kiev",
            "phone" : "380441112233",
            "location" : "50.448298:30.496656",
            "close_time" : "20:00"
            },
            {
            "id" : 7,
            "name" : "Coffee House",
            "picture" : "https://irs0.4sqi.net/img/general/width960/btxjlgiz_M5t6IIPTd0PrjB5k0aw5vonDzu3ufwOdnI.jpg",
            "genres" : "Lounge/Pop/Jazz/Slamming Brutal Death Metal",
            "address" : "86a Olesya Gonchara str, Kiev",
            "phone" : "380441112233",
            "location" : "50.448298:30.496656",
            "close_time" : "20:00"
            },
            {
            "id" : 8,
            "name" : "Coffee House",
            "picture" : "https://irs0.4sqi.net/img/general/width960/btxjlgiz_M5t6IIPTd0PrjB5k0aw5vonDzu3ufwOdnI.jpg",
            "genres" : "Lounge/Pop/Jazz/Slamming Brutal Death Metal",
            "address" : "86a Olesya Gonchara str, Kiev",
            "phone" : "380441112233",
            "location" : "50.448298:30.496656",
            "close_time" : "20:00"
            },
            {
            "id" : 9,
            "name" : "Coffee House",
            "picture" : "https://irs0.4sqi.net/img/general/width960/btxjlgiz_M5t6IIPTd0PrjB5k0aw5vonDzu3ufwOdnI.jpg",
            "genres" : "Lounge/Pop/Jazz/Slamming Brutal Death Metal",
            "address" : "86a Olesya Gonchara str, Kiev",
            "phone" : "380441112233",
            "location" : "50.448298:30.496656",
            "close_time" : "20:00"
            },
            {
            "id" : 10,
            "name" : "Coffee House",
            "picture" : "https://irs0.4sqi.net/img/general/width960/btxjlgiz_M5t6IIPTd0PrjB5k0aw5vonDzu3ufwOdnI.jpg",
            "genres" : "Lounge/Pop/Jazz/Slamming Brutal Death Metal",
            "address" : "86a Olesya Gonchara str, Kiev",
            "phone" : "380441112233",
            "location" : "50.448298:30.496656",
            "close_time" : "20:00"
            },
            {
            "id" : 11,
            "name" : "Coffee House",
            "picture" : "https://irs0.4sqi.net/img/general/width960/btxjlgiz_M5t6IIPTd0PrjB5k0aw5vonDzu3ufwOdnI.jpg",
            "genres" : "Lounge/Pop/Jazz/Slamming Brutal Death Metal",
            "address" : "86a Olesya Gonchara str, Kiev",
            "phone" : "380441112233",
            "location" : "50.448298:30.496656",
            "close_time" : "20:00"
            },
            {
            "id" : 12,
            "name" : "Coffee House",
            "picture" : "https://irs0.4sqi.net/img/general/width960/btxjlgiz_M5t6IIPTd0PrjB5k0aw5vonDzu3ufwOdnI.jpg",
            "genres" : "Lounge/Pop/Jazz/Slamming Brutal Death Metal",
            "address" : "86a Olesya Gonchara str, Kiev",
            "phone" : "380441112233",
            "location" : "50.448298:30.496656",
            "close_time" : "20:00"
            },
            {
            "id" : 13,
            "name" : "Coffee House",
            "picture" : "https://irs0.4sqi.net/img/general/width960/btxjlgiz_M5t6IIPTd0PrjB5k0aw5vonDzu3ufwOdnI.jpg",
            "genres" : "Lounge/Pop/Jazz/Slamming Brutal Death Metal",
            "address" : "86a Olesya Gonchara str, Kiev",
            "phone" : "380441112233",
            "location" : "50.448298:30.496656",
            "close_time" : "20:00"
            },
            {
            "id" : 14,
            "name" : "Coffee House",
            "picture" : "https://irs0.4sqi.net/img/general/width960/btxjlgiz_M5t6IIPTd0PrjB5k0aw5vonDzu3ufwOdnI.jpg",
            "genres" : "Lounge/Pop/Jazz/Slamming Brutal Death Metal",
            "address" : "86a Olesya Gonchara str, Kiev",
            "phone" : "380441112233",
            "location" : "50.448298:30.496656",
            "close_time" : "20:00"
            },
            {
            "id" : 15,
            "name" : "Coffee House",
            "picture" : "https://irs0.4sqi.net/img/general/width960/btxjlgiz_M5t6IIPTd0PrjB5k0aw5vonDzu3ufwOdnI.jpg",
            "genres" : "Lounge/Pop/Jazz/Slamming Brutal Death Metal",
            "address" : "86a Olesya Gonchara str, Kiev",
            "phone" : "380441112233",
            "location" : "50.448298:30.496656",
            "close_time" : "20:00"
            },
            {
            "id" : 16,
            "name" : "Coffee House",
            "picture" : "https://irs0.4sqi.net/img/general/width960/btxjlgiz_M5t6IIPTd0PrjB5k0aw5vonDzu3ufwOdnI.jpg",
            "genres" : "Lounge/Pop/Jazz/Slamming Brutal Death Metal",
            "address" : "86a Olesya Gonchara str, Kiev",
            "phone" : "380441112233",
            "location" : "50.448298:30.496656",
            "close_time" : "20:00"
            },
            {
            "id" : 17,
            "name" : "Coffee House",
            "picture" : "https://irs0.4sqi.net/img/general/width960/btxjlgiz_M5t6IIPTd0PrjB5k0aw5vonDzu3ufwOdnI.jpg",
            "genres" : "Lounge/Pop/Jazz/Slamming Brutal Death Metal",
            "address" : "86a Olesya Gonchara str, Kiev",
            "phone" : "380441112233",
            "location" : "50.448298:30.496656",
            "close_time" : "20:00"
            },
            {
            "id" : 18,
            "name" : "Coffee House",
            "picture" : "https://irs0.4sqi.net/img/general/width960/btxjlgiz_M5t6IIPTd0PrjB5k0aw5vonDzu3ufwOdnI.jpg",
            "genres" : "Lounge/Pop/Jazz/Slamming Brutal Death Metal",
            "address" : "86a Olesya Gonchara str, Kiev",
            "phone" : "380441112233",
            "location" : "50.448298:30.496656",
            "close_time" : "20:00"
            },
            {
            "id" : 19,
            "name" : "Coffee House",
            "picture" : "https://irs0.4sqi.net/img/general/width960/btxjlgiz_M5t6IIPTd0PrjB5k0aw5vonDzu3ufwOdnI.jpg",
            "genres" : "Lounge/Pop/Jazz/Slamming Brutal Death Metal",
            "address" : "86a Olesya Gonchara str, Kiev",
            "phone" : "380441112233",
            "location" : "50.448298:30.496656",
            "close_time" : "20:00"
            },
            {
            "id" : 20,
            "name" : "Coffee House",
            "picture" : "https://irs0.4sqi.net/img/general/width960/btxjlgiz_M5t6IIPTd0PrjB5k0aw5vonDzu3ufwOdnI.jpg",
            "genres" : "Lounge/Pop/Jazz/Slamming Brutal Death Metal",
            "address" : "86a Olesya Gonchara str, Kiev",
            "phone" : "380441112233",
            "location" : "50.448298:30.496656",
            "close_time" : "20:00"
            }
        ]
    }
}